[
  {
    "name": "Austrian Space Agency (FFG)",
    "city": "Vienna",
    "country": "Austria",
    "address": "Sensengasse 1, 1090 Vienna, Austria",
    "lat": 48.2082,
    "lng": 16.3738
  },
  {
    "name": "Belgian Federal Science Policy Office (BELSPO)",
    "city": "Brussels",
    "country": "Belgium",
    "address": "Rue de la Science 8, 1000 Brussels, Belgium",
    "lat": 50.8503,
    "lng": 4.3517
  },
  {
    "name": "Czech Space Office",
    "city": "Prague",
    "country": "Czech Republic",
    "address": "Rybná 716/24, 110 00 Prague, Czech Republic",
    "lat": 50.0755,
    "lng": 14.4378
  },
  {
    "name": "Danish Agency for Science and Higher Education",
    "city": "Copenhagen",
    "country": "Denmark",
    "address": "Bredgade 40, 1260 Copenhagen, Denmark",
    "lat": 55.6761,
    "lng": 12.5683
  },
  {
    "name": "Estonian Research Council",
    "city": "Tallinn",
    "country": "Estonia",
    "address": "Harju tn 14, 15072 Tallinn, Estonia",
    "lat": 59.4370,
    "lng": 24.7536
  },
  {
    "name": "Finnish Meteorological Institute",
    "city": "Helsinki",
    "country": "Finland",
    "address": "Erik Palménin aukio 1, 00560 Helsinki, Finland",
    "lat": 60.1699,
    "lng": 24.9384
  },
  {
    "name": "CNES",
    "city": "Paris",
    "country": "France",
    "address": "2 place Maurice Quentin, 75039 Paris, France",
    "lat": 48.8566,
    "lng": 2.3522
  },
  {
    "name": "DLR",
    "city": "Cologne",
    "country": "Germany",
    "address": "Linder Höhe, 51147 Cologne, Germany",
    "lat": 50.9375,
    "lng": 6.9603
  },
  {
    "name": "Hellenic Space Agency",
    "city": "Athens",
    "country": "Greece",
    "address": "Leof. Andrea Siggrou 31, 117 41 Athens, Greece",
    "lat": 37.9838,
    "lng": 23.7275
  },
  {
    "name": "Hungarian Space Office",
    "city": "Budapest",
    "country": "Hungary",
    "address": "Váci út 45, 1134 Budapest, Hungary",
    "lat": 47.4979,
    "lng": 19.0402
  },
  {
    "name": "Enterprise Ireland",
    "city": "Dublin",
    "country": "Ireland",
    "address": "The Plaza, East Point Business Park, Dublin 3, Ireland",
    "lat": 53.3498,
    "lng": -6.2603
  },
  {
    "name": "ASI",
    "city": "Rome",
    "country": "Italy",
    "address": "Via del Politecnico snc, 00133 Rome, Italy",
    "lat": 41.9028,
    "lng": 12.4964
  },
  {
    "name": "Luxembourg Space Agency",
    "city": "Luxembourg",
    "country": "Luxembourg",
    "address": "6 rue Richard Coudenhove-Kalergi, 1359 Luxembourg",
    "lat": 49.6116,
    "lng": 6.1319
  },
  {
    "name": "NSO",
    "city": "Utrecht",
    "country": "Netherlands",
    "address": "Newtonlaan 1, 3584 BZ Utrecht, Netherlands",
    "lat": 52.0907,
    "lng": 5.1214
  },
  {
    "name": "Norwegian Space Agency",
    "city": "Oslo",
    "country": "Norway",
    "address": "P.O. Box 542, 1327 Lysaker, Norway",
    "lat": 59.9139,
    "lng": 10.7522
  },
  {
    "name": "Polish Space Agency",
    "city": "Warsaw",
    "country": "Poland",
    "address": "ul. Trzy Lipy 3, 80-172 Gdańsk, Poland",
    "lat": 54.3520,
    "lng": 18.6466
  },
  {
    "name": "Portuguese Space Agency",
    "city": "Lisbon",
    "country": "Portugal",
    "address": "Estrada do Paço do Lumiar 22, 1649-038 Lisbon, Portugal",
    "lat": 38.7223,
    "lng": -9.1393
  },
  {
    "name": "Romanian Space Agency",
    "city": "Bucharest",
    "country": "Romania",
    "address": "Calea București 1K, Otopeni, Ilfov County, Romania",
    "lat": 44.4397,
    "lng": 26.0963
  },
  {
    "name": "CDTI",
    "city": "Madrid",
    "country": "Spain",
    "address": "Calle Cid 4, 28001 Madrid, Spain",
    "lat": 40.4168,
    "lng": -3.7038
  },
  {
    "name": "SNSA",
    "city": "Stockholm",
    "country": "Sweden",
    "address": "Solna Strandväg 98, 171 54 Solna, Sweden",
    "lat": 59.3293,
    "lng": 18.0686
  },
  {
    "name": "Swiss Space Office",
    "city": "Bern",
    "country": "Switzerland",
    "address": "Hallwylstrasse 15, 3003 Bern, Switzerland",
    "lat": 46.9481,
    "lng": 7.4474
  },
  {
    "name": "UK Space Agency",
    "city": "Swindon",
    "country": "United Kingdom",
    "address": "Polaris House, North Star Avenue, Swindon SN2 1SZ, UK",
    "lat": 51.5851,
    "lng": -1.7847
  }
]